[
  {
    "id": 1,
    "name": "Rahul Sharma",
    "department": "Information Technology",
    "position": { "lat": 12.9716, "lng": 77.5946 },
    "city": "Bangalore"
  },
  {
    "id": 2,
    "name": "Rajesh Sharma",
    "department": "Information Technology",
    "position": { "lat": 28.6139, "lng": 77.209 },
    "city": "Delhi"
  },
  {
    "id": 3,
    "name": "Sneha Patel",
    "department": "Finance",
    "position": { "lat": 19.076, "lng": 72.8777 },
    "city": "Mumbai"
  },
  {
    "id": 4,
    "name": "Vikram Singh",
    "department": "Marketing",
    "position": { "lat": 28.7041, "lng": 77.1025 },
    "city": "Delhi"
  },
  {
    "id": 5,
    "name": "Rahul Sharma",
    "department": "Human Resources",
    "position": { "lat": 22.5726, "lng": 88.3639 },
    "city": "Kolkata"
  },
  {
    "id": 6,
    "name": "Preeti Gupta",
    "department": "Sales",
    "position": { "lat": 12.9716, "lng": 77.5946 },
    "city": "Bangalore"
  },
  {
    "id": 7,
    "name": "Amit Patel",
    "department": "Operations",
    "position": { "lat": 28.6139, "lng": 77.209 },
    "city": "Delhi"
  },
  {
    "id": 8,
    "name": "Neha Verma",
    "department": "Research and Development",
    "position": { "lat": 19.076, "lng": 72.8777 },
    "city": "Mumbai"
  },
  {
    "id": 9,
    "name": "Sanjay Sharma",
    "department": "Aviation",
    "position": { "lat": 28.7041, "lng": 77.1025 },
    "city": "Delhi"
  },
  {
    "id": 10,
    "name": "Anjali Singh",
    "department": "Finance",
    "position": { "lat": 22.5726, "lng": 88.3639 },
    "city": "Kolkata"
  },
  {
    "id": 11,
    "name": "Manish Patel",
    "department": "Marketing",
    "position": { "lat": 12.9716, "lng": 77.5946 },
    "city": "Bangalore"
  },
  {
    "id": 12,
    "name": "Nisha Gupta",
    "department": "Human Resources",
    "position": { "lat": 19.076, "lng": 72.8777 },
    "city": "Mumbai"
  },
  {
    "id": 13,
    "name": "Arjun Singh",
    "department": "Sales",
    "position": { "lat": 22.5726, "lng": 88.3639 },
    "city": "Kolkata"
  },
  {
    "id": 14,
    "name": "Arun Sharma",
    "department": "Operations",
    "position": { "lat": 12.9716, "lng": 77.5946 },
    "city": "Bangalore"
  },
  {
    "id": 14,
    "name": "Ella Davis",
    "department": "Operations",
    "position": { "lat": 21.17250585873067, "lng": 79.0922576781491 },
    "city": "Nagpur"
  },
  {
    "id": 15,
    "name": "Abdul Kalam",
    "department": "Aviation",
    "position": { "lat": 19.879624249614274, "lng": 75.37172707821146 },
    "city": "Aurangabad"
  },
  {
    "id": 16,
    "name": "Rajesh Patel",
    "department": "Finance",
    "position": { "lat": 23.02049760152767, "lng": 72.57969190192246 },
    "city": "Ahmedabad"
  },
  {
    "id": 17,
    "name": "Priya Sharma",
    "department": "Marketing",
    "position": { "lat": 28.7040592, "lng": 77.10249019999999 },
    "city": "Delhi"
  },
  {
    "id": 18,
    "name": "Aniket Singh",
    "department": "Technology",
    "position": { "lat": 28.6139, "lng": 77.209 },
    "city": "Delhi"
  },
  {
    "id": 19,
    "name": "Kavita Das",
    "department": "HR",
    "position": { "lat": 25.2048, "lng": 55.2708 },
    "city": "Dubai"
  },
  {
    "id": 20,
    "name": "Amit Sharma",
    "department": "Sales",
    "position": { "lat": 19.076, "lng": 72.8777 },
    "city": "Mumbai"
  },
  {
    "id": 21,
    "name": "Sneha Verma",
    "department": "Operations",
    "position": { "lat": 28.6139, "lng": 77.209 },
    "city": "Delhi"
  },
  {
    "id": 22,
    "name": "Sanjay Kapoor",
    "department": "Finance",
    "position": { "lat": 12.9716, "lng": 77.5946 },
    "city": "Bangalore"
  },
  {
    "id": 23,
    "name": "Ananya Reddy",
    "department": "Technology",
    "position": { "lat": 17.385044, "lng": 78.486671 },
    "city": "Hyderabad"
  },
  {
    "id": 24,
    "name": "Nikhil Kumar",
    "department": "Marketing",
    "position": { "lat": 22.5726, "lng": 88.3639 },
    "city": "Kolkata"
  },
  {
    "id": 25,
    "name": "Rahul Gupta",
    "department": "HR",
    "position": { "lat": 28.7041, "lng": 77.1025 },
    "city": "Delhi"
  },
  {
    "id": 26,
    "name": "Mohini Patel",
    "department": "Sales",
    "position": { "lat": 26.9124, "lng": 75.7873 },
    "city": "Jaipur"
  },
  {
    "id": 27,
    "name": "Rajesh Kumar",
    "department": "Operations",
    "position": { "lat": 19.076, "lng": 72.8777 },
    "city": "Mumbai"
  },
  {
    "id": 28,
    "name": "Rahul Singh",
    "department": "Aviation",
    "position": { "lat": 28.6139, "lng": 77.209 },
    "city": "Delhi"
  },
  {
    "id": 29,
    "name": "Rajesh Kumar",
    "department": "Finance",
    "position": { "lat": 28.7041, "lng": 77.1025 },
    "city": "Delhi"
  },
  {
    "id": 30,
    "name": "Rajesh Kumar",
    "department": "Marketing",
    "position": { "lat": 28.6139, "lng": 77.209 },
    "city": "Delhi"
  },
  {
    "id": 31,
    "name": "Rajesh Kumar",
    "department": "HR",
    "position": { "lat": 28.7041, "lng": 77.1025 },
    "city": "Delhi"
  },
  {
    "id": 32,
    "name": "Rajesh Kumar",
    "department": "Sales",
    "position": { "lat": 28.6139, "lng": 77.209 },
    "city": "Delhi"
  },
  {
    "id": 33,
    "name": "Rajesh Kumar",
    "department": "Operations",
    "position": { "lat": 28.7041, "lng": 77.1025 },
    "city": "Delhi"
  },
  {
    "id": 34,
    "name": "Rajesh Kumar",
    "department": "Aviation",
    "position": { "lat": 28.6139, "lng": 77.209 },
    "city": "Delhi"
  },
  {
    "id": 35,
    "name": "Rajesh Kumar",
    "department": "Finance",
    "position": { "lat": 28.7041, "lng": 77.1025 },
    "city": "Delhi"
  },
  {
    "id": 36,
    "name": "John Smith",
    "department": "Finance",
    "position": { "lat": 28.6139, "lng": 77.209 },
    "city": "Delhi"
  },
  {
    "id": 37,
    "name": "Emily Johnson",
    "department": "Marketing",
    "position": { "lat": 12.9716, "lng": 77.5946 },
    "city": "Bangalore"
  },
  {
    "id": 38,
    "name": "Michael Lee",
    "department": "Human Resources",
    "position": { "lat": 23.0225, "lng": 72.5714 },
    "city": "Ahmedabad"
  },
  {
    "id": 39,
    "name": "Sophia Wilson",
    "department": "Sales",
    "position": { "lat": 19.076, "lng": 72.8777 },
    "city": "Mumbai"
  },
  {
    "id": 40,
    "name": "William Martin",
    "department": "Operations",
    "position": { "lat": 17.385, "lng": 78.4867 },
    "city": "Hyderabad"
  },
  {
    "id": 41,
    "name": "Olivia Taylor",
    "department": "Engineering",
    "position": { "lat": 13.0827, "lng": 80.2707 },
    "city": "Chennai"
  },
  {
    "id": 42,
    "name": "Daniel Brown",
    "department": "IT",
    "position": { "lat": 26.9124, "lng": 75.7873 },
    "city": "Jaipur"
  },
  {
    "id": 43,
    "name": "Ava Johnson",
    "department": "Research",
    "position": { "lat": 22.5726, "lng": 88.3639 },
    "city": "Kolkata"
  },
  {
    "id": 44,
    "name": "James Davis",
    "department": "Finance",
    "position": { "lat": 12.9716, "lng": 77.5946 },
    "city": "Bangalore"
  },
  {
    "id": 45,
    "name": "Mia Thomas",
    "department": "Marketing",
    "position": { "lat": 28.6139, "lng": 77.209 },
    "city": "Delhi"
  },
  {
    "id": 46,
    "name": "Logan Johnson",
    "department": "Human Resources",
    "position": { "lat": 17.385, "lng": 78.4867 },
    "city": "Hyderabad"
  },
  {
    "id": 47,
    "name": "Amelia Wilson",
    "department": "Sales",
    "position": { "lat": 23.0225, "lng": 72.5714 },
    "city": "Ahmedabad"
  },
  {
    "id": 48,
    "name": "Benjamin Miller",
    "department": "Operations",
    "position": { "lat": 19.076, "lng": 72.8777 },
    "city": "Mumbai"
  },
  {
    "id": 49,
    "name": "Elijah Davis",
    "department": "Engineering",
    "position": { "lat": 13.0827, "lng": 80.2707 },
    "city": "Chennai"
  },
  {
    "id": 50,
    "name": "Oliver Wilson",
    "department": "IT",
    "position": { "lat": 26.9124, "lng": 75.7873 },
    "city": "Jaipur"
  }
]
